{
  "type": "FeatureCollection",
  "features": [
    {
      "type": "Feature",
      "properties": {
        "title": "In Dnepropetrovsk startet Marcus Bensmann mit seinem Fahrer in die Vor-Ort-Recherche.",
        "permalink": "https://soundcloud.com/correctiv_org/10-denpr"
      },
      "geometry": {
        "type": "Point",
        "coordinates": [
          35.15625,
          48.44742209577055
        ]
      }
    },
    {
      "type": "Feature",
      "properties": {
        "title": "Auf dem Weg in den Osten, in Kurakhove, passiert Marcus die letzten Grenzposten.",
        "permalink": "https://soundcloud.com/correctiv_org/10-kurakhove"
      },
      "geometry": {
        "type": "Point",
        "coordinates": [
          37.27386474609375,
          47.98532601005293
        ]
      }
    },
    {
      "type": "Feature",
      "properties": {
        "title": "Marinka, die ersten Zerstörungen. Jetzt ist Marcus auf Kriegsgebiet.",
        "permalink": "https://soundcloud.com/correctiv_org/10-marinka"
      },
      "geometry": {
        "type": "Point",
        "coordinates": [
          37.519683837890625,
          47.951305426762616
        ]
      }
    },
    {
      "type": "Feature",
      "properties": {
        "title": "Marcus passiert Panzersperren – offiziell, weil er über die Wahlen berichten will.",
        "permalink": "https://soundcloud.com/correctiv_org/10-checkpoint-donetzk-dnr"
      },
      "geometry": {
        "type": "Point",
        "coordinates": [
          37.651519775390625,
          47.94394667836214
        ]
      }
    },
    {
      "type": "Feature",
      "properties": {
        "title": "In Zaroshchenske erinnert sich niemand an eine Rakete.",
        "permalink": "https://soundcloud.com/correctiv_org/10-zaroshchenske"
      },
      "geometry": {
        "type": "Point",
        "coordinates": [
          38.44931602478027,
          47.99089819188585
        ]
      }
    },
    {
      "type": "Feature",
      "properties": {
        "title": "Torez: Überfüllte Müllcontainer.",
        "permalink": "https://soundcloud.com/correctiv_org/10-torez"
      },
      "geometry": {
        "type": "Point",
        "coordinates": [
          38.60218048095703,
          48.02896823395349
        ]
      }
    },
    {
      "type": "Feature",
      "properties": {
        "title": "Bei der Grenzüberquerung nach Luhansk sieht Marcus erste Panzer.",
        "permalink": "https://soundcloud.com/correctiv_org/10-grenze-donetzk-luhansk"
      },
      "geometry": {
        "type": "Point",
        "coordinates": [
          38.801307678222656,
          48.07165590643454
        ]
      }
    },
    {
      "type": "Feature",
      "properties": {
        "title": "Auf dem Rückweg von Luhansk: kein Wasser, Schüsse, langes Warten",
        "permalink": "https://soundcloud.com/correctiv_org/10-ru-ckweg-luhansk"
      },
      "geometry": {
        "type": "Point",
        "coordinates": [
          39.277496337890625,
          48.448560725028194
        ]
      }
    },
    {
      "type": "Feature",
      "properties": {
        "title": "Marcus beschreibt die verschiedenen Typen von Separatisten",
        "permalink": "https://soundcloud.com/correctiv_org/10-ausfahrt-donetzk"
      },
      "geometry": {
        "type": "Point",
        "coordinates": [
          37.91210174560547,
          48.02093165163088
        ]
      }
    },
    {
      "type": "Feature",
      "properties": {
        "title": "Panzerspuren in Snizhne",
        "permalink": "https://soundcloud.com/correctiv_org/panzerspuren-in-snizhne"
      },
      "geometry": {
        "type": "Point",
        "coordinates": [
          38.75907897949219,
          48.01473114624478
        ]
      }
    },
    {
      "type": "Feature",
      "properties": {
        "title": "Treffen mit dem Stadtkommmandanten von Snizhne",
        "permalink": "https://soundcloud.com/correctiv_org/treffen-mit-dem-stadtkommandenten-snizhne"
      },
      "geometry": {
        "type": "Point",
        "coordinates": [
          38.766632080078125,
          48.01817596352136
        ]
      }
    },
    {
      "type": "Feature",
      "properties": {
        "title": "In Zuhres passiert Marcus einen Militärkonvoi",
        "permalink": "https://soundcloud.com/correctiv_org/in-zuhres-passiert-marcus"
      },
      "geometry": {
        "type": "Point",
        "coordinates": [
          38.30039978027344,
          48.01679806422947
        ]
      }
    },
    {
      "type": "Feature",
      "properties": {
        "title": "Stepanovka auf dem Weg nach Russland ist ein Schlachtfeld",
        "permalink": "https://soundcloud.com/correctiv_org/stepanovka-auf-dem-weg-nach"
      },
      "geometry": {
        "type": "Point",
        "coordinates": [
          38.794612884521484,
          47.925775282023274
        ]
      }
    },
    {
      "type": "Feature",
      "properties": {
        "title": "Marcus beschreibt die ukrainisch-russische Grenze",
        "permalink": "https://soundcloud.com/correctiv_org/11-grenze-1"
      },
      "geometry": {
        "type": "Point",
        "coordinates": [
          38.856239318847656,
          47.87767079094932
        ]
      }
    },
    {
      "type": "Feature",
      "properties": {
        "title": "Die Absturzstelle – Trümmer noch immer überall",
        "permalink": "https://soundcloud.com/correctiv_org/11-absturzstelle"
      },
      "geometry": {
        "type": "Point",
        "coordinates": [
          38.55102539062499,
          48.14524334899598
        ]
      }
    }
  ]
}
